Distance,Corr Dist,Corr Dist (Unstretched),Corr Speed,ABS Active,ABS Enabled,AID Allow Tire Blankets,AID Auto Blip,AID Auto Clutch,AID Auto Shift,AID Fuel Rate,AID Ideal Line,AID Mech Damage,AID Stability,AID Tire Wear Rate,Air Density,Air Temp,Ballast,Best Lap Delta,Best Lap Time,Brake Bias,Brake Pos,Brake Temp FL,Brake Temp FR,Brake Temp RL,Brake Temp RR,CG Accel Lateral,CG Accel Longitudinal,CG Accel Vertical,CG Height,Camber FL,Camber FR,Camber RL,Camber RR,Car Coord X,Car Coord Y,Car Coord Z,Car Damage Front,Car Damage Left,Car Damage Rear,Car Damage Right,Car Pos Norm,Caster FL,Caster FR,Chassis Pitch Angle,Chassis Pitch Rate,Chassis Roll Angle,Chassis Roll Rate,Chassis Velocity X,Chassis Velocity Y,Chassis Velocity Z,Chassis Yaw Rate,Clutch Pos,DRS Active,DRS Available,Drive Train Speed,ERS Heat Charging,ERS Is Charging,ERS Max Energy,ERS Power Level,ERS Recovery Level,Engine Brake Setting,Engine Limiter,Engine RPM,Flags,Fuel Level,Gear,Ground Speed,HR Sample Clock,In Pit,KERS Charge,KERS Deployed Energy,KERS Input,KERS Max Energy,LR Sample Clock,Lap Invalidated,Lap Time,Lap Time2,Last Lap Time,Last Sector Time,MR Sample Clock,Max Fuel,Max Power,Max RPM,Max Sus Travel FL,Max Sus Travel FR,Max Sus Travel RL,Max Sus Travel RR,Max Torque,Max Turbo Boost,Num Tires Off Track,Penalties Enabled,Position,Raw Data Sample Rate,Ride Height FL,Ride Height FR,Ride Height RL,Ride Height RR,Road Temp,Self Align Torque FL,Self Align Torque FR,Self Align Torque RL,Self Align Torque RR,Session Lap Count,Session Time Left,Steering Angle,Surface Grip,Suspension Travel FL,Suspension Travel FR,Suspension Travel RL,Suspension Travel RR,TC Active,TC Enabled,Throttle Pos,Tire Dirt Level FL,Tire Dirt Level FR,Tire Dirt Level RL,Tire Dirt Level RR,Tire Load FL,Tire Load FR,Tire Load RL,Tire Load RR,Tire Loaded Radius FL,Tire Loaded Radius FR,Tire Loaded Radius RL,Tire Loaded Radius RR,Tire Pressure FL,Tire Pressure FR,Tire Pressure RL,Tire Pressure RR,Tire Radius FL,Tire Radius FR,Tire Radius RL,Tire Radius RR,Tire Rubber Grip FL,Tire Rubber Grip FR,Tire Rubber Grip RL,Tire Rubber Grip RR,Tire Slip Angle FL,Tire Slip Angle FR,Tire Slip Angle RL,Tire Slip Angle RR,Tire Slip Ratio FL,Tire Slip Ratio FR,Tire Slip Ratio RL,Tire Slip Ratio RR,Tire Temp Core FL,Tire Temp Core FR,Tire Temp Core RL,Tire Temp Core RR,Tire Temp Inner FL,Tire Temp Inner FR,Tire Temp Inner RL,Tire Temp Inner RR,Tire Temp Middle FL,Tire Temp Middle FR,Tire Temp Middle RL,Tire Temp Middle RR,Tire Temp Outer FL,Tire Temp Outer FR,Tire Temp Outer RL,Tire Temp Outer RR,Toe In FL,Toe In FR,Toe In RL,Toe In RR,Turbo Boost,Wheel Angular Speed FL,Wheel Angular Speed FR,Wheel Angular Speed RL,Wheel Angular Speed RR,Wind Direction,Wind Speed
m,m,m,km/h,,,,,,,,,%,%,,kg/m3,C,kg,s,s,%,%,C,C,C,C,G,G,G,mm,deg,deg,deg,deg,m,m,m,,,,,,deg,deg,deg,deg/s,deg,deg/s,m/s,m/s,m/s,deg/s,%,,,rad/s,,,MJ,,,,,rpm,,l,,km/h,,,%,kJ,%,MJ,,,s,s,s,s,,l,hp,rpm,mm,mm,mm,mm,N.m,,,,,Hz,mm,mm,mm,mm,C,N.m,N.m,N.m,N.m,,s,deg,%,mm,mm,mm,mm,,,%,,,,,N,N,N,N,mm,mm,mm,mm,psi,psi,psi,psi,mm,mm,mm,mm,%,%,%,%,deg,deg,deg,deg,%,%,%,%,C,C,C,C,C,C,C,C,C,C,C,C,C,C,C,C,deg,deg,deg,deg,,rad/s,rad/s,rad/s,rad/s,deg,km/h


0,0,0,0.5,0,1,1,1,1,1,0,0,0,100,1,1.24300,12,0,0.0000,0.000,56.999990000,100.00,12,12,12,12,0.000,0.0000,0.000,309.04,-2.8462,-2.995,-1.0521,-1.178,-62.4,231.23,-1.888,0,0,0,0,0.9790,-10.15905,-10.15905,0.013,0.44,0.000,0.00,0.00,0.000,0.1318,-0.00,0.00,0,0,0.00,0,0,0,0,0,0,0.0000,61,0.0000,30,0.000,0.47,0.0000,0,0,0,0,0,0.0000,0,0.000,0.000,0.000,0.000,0.0000,150,968.10656,18800,79.999990000,79.999990000,149.999990000,149.999990000,386,0,0.0000,1,5.0000,20.00,74.78,74.78,58.44,58.44,13,0.00,0.00,0.00,0.00,0.0000,0.00,0.00,100,-2.988,-2.988,-16.24,-16.24,0.0000,1,0.00,0,0.0000,0,0.0000,0,0,0,0,320.000,320.00,320.000,320.000,26.640,26.6400,26.640,26.6400,319.999990000,319.999990000,319.999990000,319.999990000,100.0000,100.00000,100.0000,100.0000,0.000,0.000,0.0000,0.0000,0.0000,0.0000,0.00,0.00,80.000,80.000,80.000,80.000,80.000,80.000,80.000,80.000,80.000,80.000,80.000,80.000,80.000,80.000,80.000,80.000,-0.365,-0.365,0.17139,0.17139,0,56.83,56.84,56.60,56.60,-359,21
1,1,1,13.0,0,1,1,1,1,1,0,0,0,100,1,1.24300,12,0,0.0000,0.000,56.999999000,0.00,12,12,12,12,0.004,1.0468,0.539,233.25,-2.8042,-2.856,-1.9242,-1.900,-61.7,231.23,-1.963,0,0,0,0,0.9792,-10.15906,-10.15906,-1.169,0.57,0.080,0.15,3.62,0.008,-0.0815,-0.24,45.55,0,0,26.57,0,0,0,0,0,0,0.0000,4575,0.0000,30,1.000,13.03,0.0000,0,0,0,0,0,0.0000,0,1.008,1.008,0.000,0.000,0.0000,150,968.10656,18800,79.999998000,79.999998000,149.999991000,149.999991000,386,0,0.0000,1,5.0000,83.33,-36.50,-36.50,12.61,12.61,13,-9.47,9.66,0.03,-0.06,0.0000,-1.00,0.04,100,3.777,3.623,14.09,14.42,0.0000,1,100.00,0,0.0000,0,0.0000,1470,1425,2090,2148,315.867,316.00,313.976,313.815,26.637,26.6374,26.638,26.6382,319.999993000,319.999993000,319.999993000,319.999993000,100.0000,100.00000,100.0000,100.0000,0.108,-0.082,-0.0026,0.4151,-0.2182,-0.2360,100.00,100.00,79.984,79.984,79.989,79.989,79.901,79.901,80.234,80.239,79.900,79.900,80.211,80.215,79.900,79.900,80.204,80.209,-0.145,-0.156,0.16024,0.16001,0,11.09,11.10,26.47,26.47,-359,21
10,10,10,49.1,0,1,1,1,1,1,0,0,0,100,1,1.24300,12,0,0.0000,0.000,56.999999000,0.00,12,12,12,12,-0.001,1.1276,0.535,232.94,-2.7849,-2.779,-1.9273,-1.926,-53.0,231.25,-1.969,0,0,0,0,0.9827,-10.15906,-10.15906,-1.183,0.43,0.092,-0.01,13.64,0.002,-0.2760,-0.01,100.00,0,0,49.53,0,0,0,0,0,0,0.0000,8347,0.0000,30,1.000,49.10,0.0000,0,0,0,0,0,0.0000,0,2.004,2.004,0.000,0.000,0.0000,150,968.10656,18800,79.999998000,79.999998000,149.999991000,149.999991000,386,0,0.0000,1,5.0000,83.33,-36.83,-36.83,11.86,11.86,13,-10.97,11.16,0.48,-0.49,0.0000,-2.00,0.03,100,4.033,4.064,14.83,14.88,1.0000,1,100.00,0,0.0000,0,0.0000,1614,1623,2184,2189,315.432,315.40,313.715,313.697,26.605,26.6054,26.618,26.6188,319.999993000,319.999993000,319.999993000,319.999993000,100.0000,100.00000,100.0000,100.0000,0.087,-0.080,-0.2005,0.2151,-0.2580,-0.2573,12.74,12.74,79.784,79.784,79.865,79.868,78.745,78.744,80.488,80.526,78.736,78.735,80.362,80.398,78.731,78.731,80.323,80.360,-0.137,-0.142,0.15956,0.15952,0,42.22,42.22,47.75,47.75,-359,21
29,29,29,87.4,0,1,1,1,1,1,0,0,0,100,1,1.24300,12,0,0.0000,0.000,56.999999000,0.00,12,12,12,12,0.006,0.7727,-0.506,230.74,-2.7665,-2.690,-1.9781,-1.885,-34.2,231.31,-1.987,0,0,0,0,0.9903,-10.15906,-10.15906,-1.091,-0.13,-0.031,0.03,24.28,0.004,-0.4512,-0.10,100.00,0,0,78.61,0,0,0,0,0,0,0.0000,13247,0.0000,30,1.000,87.43,0.0000,0,0,0,0,0,0.0000,0,3.003,3.003,0.000,0.000,0.0000,150,968.10656,18800,79.999998000,79.999998000,149.999991000,149.999991000,386,0,0.0000,1,5.0000,66.66,-37.38,-37.38,8.29,8.29,13,-9.37,11.41,-17.31,17.48,0.0000,-3.00,0.03,100,4.855,5.183,17.30,17.95,0.0000,1,100.00,0,0.0000,0,0.0000,1318,1575,2606,2632,315.611,314.92,312.552,312.465,26.563,26.5635,26.604,26.6042,319.999993000,319.999993000,319.999993000,319.999993000,100.0000,100.00000,100.0000,100.0000,0.072,-0.063,-0.1946,0.2139,-0.1810,-0.1611,3.07,3.06,79.520,79.522,79.774,79.776,77.578,77.581,80.603,80.628,77.550,77.554,80.372,80.395,77.538,77.540,80.300,80.323,-0.112,-0.107,0.15728,0.15671,0,75.27,75.29,78.48,78.48,-359,21
59,59,59,119.3,0,1,1,1,1,1,0,0,0,100,1,1.24300,12,0,0.0000,0.000,56.999999000,0.00,12,12,12,12,-0.004,1.3666,-0.659,229.15,-2.7607,-2.763,-2.0715,-2.076,-4.2,231.43,-1.969,0,0,0,0,0.0024,-10.15906,-10.15906,-1.047,1.33,0.167,-0.27,33.15,0.005,-0.5629,-0.01,100.00,0,0,107.60,0,0,0,0,0,0,0.0000,14413,0.0000,30,2.000,119.35,0.0000,0,0,0,0,0,0.0000,0,4.005,4.005,0.000,0.000,0.0000,150,968.10656,18800,79.999998000,79.999998000,149.999991000,149.999991000,386,0,0.0000,1,5.0000,111.11,-36.36,-36.36,4.43,4.43,13,-8.29,8.31,-16.66,16.92,0.0000,-4.00,0.03,100,5.110,5.125,20.19,20.25,0.0000,1,100.00,0,0.0000,0,0.0000,1189,1167,3350,3312,315.892,315.95,310.453,310.564,26.529,26.5296,26.602,26.6035,319.999993000,319.999993000,319.999993000,319.999993000,100.0000,100.00000,100.0000,100.0000,0.075,-0.060,-0.1923,0.2141,-0.2787,-0.2809,4.70,4.69,79.309,79.310,79.764,79.772,76.327,76.325,81.171,81.213,76.267,76.265,80.782,80.823,76.240,76.237,80.657,80.699,-0.104,-0.108,0.15534,0.15525,0,102.55,102.54,108.84,108.84,-359,21
98,98,98,155.9,0,1,1,1,1,1,0,0,0,100,1,1.24300,12,0,0.0000,0.000,56.999999000,0.00,12,12,12,12,0.002,1.6110,-0.506,221.31,-2.7321,-2.726,-2.3179,-2.306,34.9,231.61,-1.999,0,0,0,0,0.0181,-10.15906,-10.15906,-0.897,0.55,0.061,0.09,43.29,0.008,-0.6602,-0.05,100.00,0,0,141.16,0,0,0,0,0,0,0.0000,15239,0.0000,30,3.000,155.87,0.0000,0,0,0,0,0,0.0000,0,5.007,5.007,0.000,0.000,0.0000,150,968.10656,18800,79.999998000,79.999998000,149.999991000,149.999991000,386,0,0.0000,1,5.0000,83.33,-40.67,-40.67,-6.09,-6.09,13,-18.56,19.01,-21.60,22.29,0.0000,-5.00,0.03,100,6.853,6.892,28.73,28.87,0.0000,1,100.00,0,0.0000,0,0.0000,2180,2190,4245,4265,312.837,312.81,307.877,307.825,26.493,26.4933,26.619,26.6203,319.999993000,319.999993000,319.999993000,319.999993000,100.0000,100.00000,100.0000,100.0000,0.029,-0.014,-0.1847,0.2091,-0.2125,-0.2125,5.14,5.14,79.080,79.083,79.867,79.877,75.003,75.007,82.148,82.193,74.894,74.898,81.544,81.587,74.845,74.849,81.340,81.384,-0.050,-0.053,0.14620,0.14603,0,133.78,133.78,140.81,140.81,-359,21
149,149,149,191.1,0,1,1,1,1,1,0,0,0,100,1,1.24300,12,0,0.0000,0.000,56.999999000,0.00,12,12,12,12,0.009,1.3140,-0.502,215.64,-2.6712,-2.494,-2.7840,-2.640,84.7,231.87,-2.009,0,0,0,0,0.0382,-10.15906,-10.15906,-0.943,2.71,0.171,-1.44,53.09,0.007,-0.6983,-0.25,100.00,0,0,169.29,0,0,0,0,0,0,0.0000,15146,0.0000,30,4.000,191.14,0.0000,0,0,0,0,0,0.0000,0,6.003,6.003,0.000,0.000,0.0000,150,968.10656,18800,79.999998000,79.999998000,149.999991000,149.999991000,386,0,0.0000,1,5.0000,111.11,-44.35,-44.35,-16.70,-16.70,13,-23.71,35.13,-54.27,49.69,0.0000,-6.00,-0.01,100,7.447,9.373,34.72,35.30,0.0000,1,100.00,0,0.0000,0,0.0000,2653,3536,5286,4927,311.478,308.86,305.080,306.005,26.469,26.4695,26.656,26.6585,319.999993000,319.999993000,319.999993000,319.999993000,100.0000,100.00000,100.0000,100.0000,0.010,0.061,-0.1737,0.2051,-0.1598,-0.1376,3.05,3.02,78.929,78.934,80.103,80.116,73.582,73.598,83.101,83.173,73.398,73.413,82.235,82.305,73.316,73.331,81.922,81.993,-0.035,0.026,0.13773,0.13691,0,164.04,164.10,169.07,169.07,-359,21
208,208,208,234.2,0,1,1,1,1,1,0,0,0,100,1,1.24300,12,0,0.0000,0.000,56.999999000,0.00,12,12,12,12,-0.010,1.1203,-0.503,203.47,-2.4320,-2.673,-2.8644,-2.898,144.0,232.25,-2.048,0,0,0,0,0.0620,-10.15906,-10.15906,-0.581,-1.03,-0.158,2.13,65.06,0.003,-0.5968,-0.00,100.00,0,0,205.07,0,0,0,0,0,0,0.0000,18346,0.0000,30,4.000,234.23,0.0000,0,0,0,0,0,0.0000,0,7.005,7.005,0.000,0.000,0.0000,150,968.10656,18800,79.999998000,79.999998000,149.999991000,149.999991000,386,0,0.0000,1,5.0000,111.11,-48.08,-48.08,-31.91,-31.91,13,-42.30,40.03,-87.76,88.58,0.0000,-7.00,-0.05,100,10.528,9.720,50.25,50.26,0.0000,1,100.00,0,0.0000,0,0.0000,4103,3792,6511,6571,307.075,307.99,301.403,301.264,26.456,26.4575,26.720,26.7217,319.999993000,319.999993000,319.999993000,319.999993000,100.0000,100.00000,100.0000,100.0000,-0.074,0.049,-0.1728,0.1629,-0.1074,-0.1133,2.08,2.08,78.847,78.859,80.497,80.511,72.117,72.164,84.401,84.463,71.830,71.874,83.194,83.253,71.703,71.748,82.722,82.782,0.056,0.040,0.11283,0.11281,0,200.70,200.69,204.74,204.74,-359,21
275,275,275,253.5,0,1,1,1,1,1,0,0,0,100,1,1.24300,12,0,0.0000,0.000,56.999999000,0.00,12,12,12,12,-0.047,0.8552,-0.451,189.75,-2.5127,-2.583,-3.2590,-3.213,210.6,232.76,-1.720,0,0,0,0,0.0889,-10.15906,-10.15906,0.811,-1.48,0.042,3.31,70.42,0.009,-0.3486,0.30,100.00,0,0,220.28,0,0,0,0,0,0,0.0000,16610,0.0000,30,5.000,253.53,0.0000,0,0,0,0,0,0.0000,0,8.007,8.007,0.000,0.000,0.0000,150,968.10656,18800,79.999998000,79.999998000,149.999991000,149.999991000,386,0,0.0000,1,5.0000,66.66,-49.21,-49.21,-50.39,-50.39,13,-46.05,41.01,-136.73,134.43,0.0000,-8.00,0.01,100,11.651,10.489,64.65,65.67,0.0000,1,100.00,0,0.0000,0,0.0000,4205,3879,8075,8145,306.562,307.61,296.804,296.560,26.460,26.4622,26.806,26.8085,319.999993000,319.999993000,319.999993000,319.999993000,100.0000,100.00000,100.0000,100.0000,-0.091,0.063,-0.1448,0.1226,-0.0743,-0.0767,1.39,1.41,78.874,78.889,81.036,81.053,70.888,70.959,85.086,85.169,70.458,70.525,83.538,83.618,70.271,70.336,82.888,82.968,0.095,0.058,0.08348,0.08134,0,217.20,217.18,220.00,220.00,-359,21
349,349,349,269.4,0,1,1,1,1,1,0,0,0,100,1,1.24300,12,0,0.0000,0.000,56.999999000,0.00,12,12,12,12,-3.020,-0.8452,-0.015,178.25,-1.4097,-3.445,-3.1411,-3.765,284.2,232.09,0.960,0,0,0,0,0.1185,-10.15906,-10.15906,2.717,-4.49,2.040,5.53,74.82,-0.713,-0.3840,27.29,100.00,0,0,229.62,0,0,0,0,0,0,0.0000,17314,0.0000,30,5.000,269.38,0.0000,0,0,0,0,0,0.0000,0,9.000,9.000,0.000,0.000,0.0000,150,968.10656,18800,79.999998000,79.999998000,149.999991000,149.999991000,386,0,0.0000,1,5.0000,111.11,-57.52,-57.52,-47.34,-47.34,13,-245.58,-33.26,-213.95,1.12,0.0000,-9.00,17.56,100,20.202,5.241,77.42,64.68,0.0000,1,0.00,0,0.0000,0,0.0000,9548,3829,8102,7270,291.713,308.83,297.252,299.420,26.503,26.4818,26.926,26.9259,319.999993000,319.999993000,319.999993000,319.999993000,100.0000,100.00000,100.0000,100.0000,-1.694,-1.456,-1.2094,-0.9376,-0.0381,0.0651,-0.62,-0.06,79.142,79.011,81.787,81.787,71.177,70.281,86.773,86.551,70.485,69.626,84.733,84.519,70.205,69.337,83.804,83.587,1.754,-1.526,0.04853,0.08250,0,231.98,229.90,230.45,229.28,-359,21
420,420,420,244.3,0,1,1,1,1,1,0,0,0,100,1,1.24300,12,0,0.0000,0.000,56.999999000,0.00,12,12,12,12,-2.264,-0.0193,0.079,183.55,-2.1505,-3.100,-2.7388,-3.404,351.6,212.34,5.144,0,0,0,0,0.1471,-10.15906,-10.15906,3.367,9.48,6.142,-3.64,67.87,-0.556,-0.5314,19.59,100.00,0,0,210.74,0,0,0,0,0,0,0.0000,15891,0.0000,30,5.000,244.35,0.0000,0,0,0,0,0,0.0000,0,10.002,10.002,0.000,0.000,0.0000,150,968.10656,18800,79.999998000,79.999998000,149.999991000,149.999991000,386,0,0.0000,1,5.0000,111.11,-57.08,-57.08,-42.04,-42.04,13,-153.23,-6.96,-204.18,20.86,0.0000,-10.00,11.17,100,17.595,9.362,63.57,49.35,0.0000,1,57.26,0,0.0000,0,0.0000,6735,4313,8099,6999,298.638,305.80,297.744,301.140,26.581,26.4674,27.045,27.0195,319.999993000,319.999993000,319.999993000,319.999993000,100.0000,100.00000,100.0000,100.0000,-1.128,-0.809,-1.0129,-0.7099,-0.0571,-0.0258,0.39,0.66,79.629,78.921,82.530,82.372,74.677,70.674,89.408,87.576,73.562,69.695,86.892,85.111,73.167,69.235,85.722,83.907,1.147,-0.857,0.08300,0.11367,0,210.63,209.04,211.32,210.13,-359,21
488,488,488,251.8,0,1,1,1,1,1,0,0,0,100,1,1.24300,12,0,0.0000,0.000,56.999999000,0.00,12,12,12,12,-2.824,0.1804,-0.631,185.54,-2.3397,-2.639,-2.5619,-3.513,407.0,172.20,10.912,0,0,0,0,0.1751,-10.15906,-10.15906,4.609,-0.32,5.554,-9.48,69.93,-0.500,-0.6320,26.14,100.00,0,0,217.65,0,0,0,0,0,0,0.0000,16411,0.0000,30,5.000,251.77,0.0000,0,0,0,0,0,0.0000,0,11.001,11.001,0.000,0.000,0.0000,150,968.10656,18800,79.999998000,79.999998000,149.999991000,149.999991000,386,0,0.0000,1,5.0000,111.11,-50.05,-50.05,-38.94,-38.94,13,-123.40,-47.88,-201.08,15.40,0.0000,-11.00,33.62,100,15.664,6.588,61.22,47.10,0.0000,1,70.20,0,0.0000,0,0.0000,5364,2994,8040,5846,303.154,310.50,297.723,303.600,26.639,26.4521,27.163,27.1079,319.999993000,319.999993000,319.999993000,319.999993000,100.0000,100.00000,100.0000,100.0000,-2.339,-2.180,-1.0573,-0.7398,-0.1125,-0.0027,0.67,1.17,79.994,78.825,83.269,82.924,76.127,70.549,90.944,88.144,74.711,69.341,88.076,85.341,74.206,68.771,86.725,83.925,2.557,-2.430,0.08854,0.11818,0,216.50,214.96,218.21,217.07,-359,21
559,559,559,257.4,0,1,1,1,1,1,0,0,0,100,1,1.24300,12,0,0.0000,0.000,56.999999000,0.00,12,12,12,12,-1.976,0.3027,0.435,190.46,-1.9451,-2.818,-1.9109,-3.194,445.2,113.65,16.177,0,0,0,0,0.2036,-10.15906,-10.15906,3.075,-0.65,3.497,-5.87,71.49,-0.846,-0.6445,8.82,100.00,0,0,222.29,0,0,0,0,0,0,0.0000,16762,0.0000,30,5.000,257.38,0.0000,0,0,0,0,0,0.0000,0,12.000,12.000,0.000,0.000,0.0000,150,968.10656,18800,79.999998000,79.999998000,149.999991000,149.999991000,386,0,0.0000,1,5.0000,111.11,-49.34,-49.34,-43.11,-43.11,13,-112.60,-16.38,-175.92,14.78,0.0000,-12.00,5.92,100,13.464,7.133,64.37,44.75,0.0000,1,70.20,0,0.0000,0,0.0000,5527,3796,7609,6111,303.746,308.73,298.827,302.881,26.717,26.4237,27.290,27.1880,319.999993000,319.999993000,319.999993000,319.999993000,100.0000,100.00000,100.0000,100.0000,-1.089,-0.941,-0.9986,-0.6757,-0.0583,-0.0489,0.68,1.06,80.484,78.648,84.066,83.425,79.549,70.749,93.775,89.260,77.752,69.287,90.538,86.076,77.147,68.593,89.037,84.423,0.612,-0.509,0.08206,0.12231,0,220.91,220.13,222.31,222.27,-359,21
632,632,632,264.3,0,1,1,1,1,1,0,0,0,100,1,1.24300,12,0,0.0000,0.000,56.999999000,0.00,12,12,12,12,-3.242,0.2310,-1.062,200.71,-1.5193,-3.540,-2.2551,-3.893,463.4,43.74,18.815,0,0,0,0,0.2328,-10.15906,-10.15906,0.174,-4.28,-0.736,-2.65,73.39,-1.744,-0.6129,25.12,100.00,0,0,228.41,0,0,0,0,0,0,0.0000,17223,0.0000,30,5.000,264.28,0.0000,0,0,0,0,0,0.0000,0,13.002,13.002,0.000,0.000,0.0000,150,968.10656,18800,79.999998000,79.999998000,149.999991000,149.999991000,386,0,0.0000,1,5.0000,83.33,-46.29,-46.29,-39.66,-39.66,13,-130.22,-16.99,-207.04,-50.85,0.0000,-13.00,7.16,100,17.581,2.311,68.19,40.43,0.0000,1,69.80,0,0.0000,0,0.0000,5488,1713,7914,5257,302.737,314.59,297.846,305.330,26.795,26.3880,27.419,27.2609,319.999993000,319.999993000,319.999993000,319.999993000,100.0000,100.00000,100.0000,100.0000,-1.885,-1.800,-1.9871,-1.6857,-0.0548,-0.1119,0.77,1.27,80.968,78.425,84.870,83.880,81.769,70.645,95.693,89.642,79.640,68.958,92.148,86.160,78.915,68.152,90.508,84.318,1.119,-1.051,0.07249,0.12986,0,227.53,224.78,228.99,227.74,-359,21
706,706,706,273.6,0,1,1,1,1,1,0,0,0,100,1,1.24300,12,0,0.0000,0.000,56.999999000,0.00,12,12,12,12,-0.907,0.2105,-0.753,197.33,-2.3927,-2.896,-3.0711,-3.333,465.7,-31.00,19.050,0,0,0,0,0.2631,-10.15906,-10.15906,-0.627,-3.53,-0.208,1.59,76.00,-0.258,-0.5522,7.28,100.00,0,0,235.86,0,0,0,0,0,0,0.0000,17785,0.0000,30,5.000,273.61,0.0000,0,0,0,0,0,0.0000,0,14.004,14.004,0.000,0.000,0.0000,150,968.10656,18800,79.999998000,79.999998000,149.999991000,149.999991000,386,0,0.0000,1,5.0000,83.33,-50.25,-50.25,-42.42,-42.42,13,-87.06,18.37,-159.07,85.91,0.0000,-14.00,4.91,100,13.551,9.096,62.38,57.16,0.0000,1,69.41,0,0.0000,0,0.0000,5096,3996,7480,6916,304.353,307.62,299.305,300.547,26.865,26.3854,27.549,27.3541,319.999993000,319.999993000,319.999993000,319.999993000,100.0000,100.00000,100.0000,100.0000,-0.582,-0.398,-0.4879,-0.1844,-0.0518,-0.0349,0.62,0.90,81.408,78.409,85.684,84.463,80.371,69.332,95.260,89.299,78.154,67.552,91.530,85.626,77.384,66.709,89.770,83.668,0.538,-0.371,0.08649,0.09864,0,234.60,234.01,235.78,235.78,-359,21
782,782,782,264.5,0,1,1,1,1,1,0,0,0,100,1,1.24300,12,0,0.0000,0.000,56.999999000,0.00,12,12,12,12,-1.982,-0.6148,-0.217,208.31,-2.0555,-3.264,-2.7384,-3.132,455.8,-105.93,17.922,0,0,0,0,0.2941,-10.15906,-10.15906,-2.357,-9.86,-0.338,9.33,73.47,-0.782,-0.7725,16.31,100.00,0,0,225.22,0,0,0,0,0,0,0.0000,16983,0.0000,30,5.000,264.52,0.0000,0,0,0,0,0,0.0000,0,15.003,15.003,0.000,0.000,0.0000,150,968.10656,18800,79.999998000,79.999998000,149.999991000,149.999991000,386,0,0.0000,1,5.0000,111.11,-45.87,-45.87,-30.61,-30.61,13,-115.61,-21.44,-132.26,-0.60,0.0000,-15.00,12.30,100,14.751,3.720,60.84,49.18,0.0000,1,0.00,0,0.0000,0,0.0000,5209,2777,5689,5263,304.653,312.10,304.163,305.121,26.960,26.3546,27.682,27.4339,319.999993000,319.999993000,319.999993000,319.999993000,100.0000,100.00000,100.0000,100.0000,-1.455,-1.394,-1.1293,-0.7920,0.0002,0.0739,-0.72,-0.13,82.001,78.217,86.513,84.962,82.303,69.189,96.693,89.516,79.795,67.192,92.660,85.572,78.921,66.237,90.727,83.434,1.178,-1.148,0.08772,0.11308,0,227.30,226.06,225.57,225.33,-359,21
852,852,852,245.1,0,1,1,1,1,1,0,0,0,100,1,1.24300,12,0,0.0000,0.000,56.999999000,0.00,12,12,12,12,-5.091,0.1122,0.912,211.51,-1.6116,-3.186,-1.5571,-3.240,423.9,-167.76,13.665,0,0,0,0,0.3229,-10.15906,-10.15906,-4.556,5.83,3.164,6.39,68.04,-2.354,-0.6865,50.28,100.00,0,0,211.93,0,0,0,0,0,0,0.0000,15980,0.0000,30,5.000,245.11,0.0000,0,0,0,0,0,0.0000,0,16.005,16.005,0.000,0.000,0.0000,150,968.10656,18800,79.999998000,79.999998000,149.999991000,149.999991000,386,0,0.0000,1,5.0000,83.33,-51.49,-51.49,-27.75,-27.75,13,-40.61,-17.50,-180.51,-109.18,0.0000,-16.00,49.02,100,22.229,0.139,60.67,35.37,0.0000,1,60.78,0,0.0000,0,0.0000,7682,2106,8571,5569,297.002,313.45,296.642,304.308,27.068,26.3004,27.798,27.4916,319.999993000,319.999993000,319.999993000,319.999993000,100.0000,100.00000,100.0000,100.0000,-5.293,-5.198,-3.1830,-2.9366,-0.2144,-0.1683,0.65,1.20,82.674,77.877,87.238,85.323,87.255,69.533,98.745,90.091,84.391,67.317,94.470,85.914,83.464,66.255,92.430,83.632,4.510,-4.462,0.08844,0.13813,0,211.37,206.90,213.69,210.45,-359,21
921,921,921,248.3,0,1,1,1,1,1,0,0,0,100,1,1.24300,12,0,0.0000,0.000,56.999999000,0.00,12,12,12,12,-1.555,0.1877,-0.079,206.70,-2.2373,-3.026,-2.9085,-3.509,367.7,-204.98,8.036,0,0,0,0,0.3510,-10.15906,-10.15906,-5.311,3.14,2.661,1.74,68.98,-0.379,-0.4689,11.83,100.00,0,0,213.99,0,0,0,0,0,0,0.0000,16135,0.0000,30,5.000,248.32,0.0000,0,0,0,0,0,0.0000,0,17.004,17.004,0.000,0.000,0.0000,150,968.10656,18800,79.999998000,79.999998000,149.999991000,149.999991000,386,0,0.0000,1,5.0000,111.11,-52.28,-52.28,-45.37,-45.37,13,-111.52,4.47,-195.84,69.88,0.0000,-17.00,7.70,100,15.524,8.377,65.09,52.83,0.0000,1,60.39,0,0.0000,0,0.0000,5610,3851,8201,7397,302.709,307.80,297.318,299.506,27.207,26.2511,27.935,27.5549,319.999993000,319.999993000,319.999993000,319.999993000,100.0000,100.00000,100.0000,100.0000,-0.852,-0.628,-0.7009,-0.4215,-0.0437,-0.0252,0.40,0.65,83.545,77.570,88.091,85.719,91.667,69.956,101.729,91.412,88.419,67.504,97.130,86.907,87.369,66.316,94.921,84.406,0.813,-0.612,0.07978,0.10690,0,213.58,212.59,214.22,213.67,-359,21
994,994,994,278.0,0,1,1,1,1,1,0,0,0,100,1,1.24300,12,0,0.0000,0.000,56.999999000,0.00,12,12,12,12,-1.498,0.8989,-0.363,195.37,-2.0104,-3.008,-3.1788,-3.827,296.6,-220.80,2.856,0,0,0,0,0.3816,-10.15906,-10.15906,-3.566,3.89,0.739,0.61,77.22,-0.698,-0.1896,2.99,100.00,0,0,240.75,0,0,0,0,0,0,0.0000,18153,0.0000,30,5.000,278.00,0.0000,0,0,0,0,0,0.0000,0,18.012,18.012,0.000,0.000,0.0000,150,968.10656,18800,79.999998000,79.999998000,149.999991000,149.999991000,386,0,0.0000,1,5.0000,66.66,-51.70,-51.70,-62.21,-62.21,13,-87.00,16.71,-253.18,90.46,0.0000,-18.01,0.01,100,16.094,8.921,76.47,63.50,0.0000,1,100.00,0,0.0000,0,0.0000,4981,3877,10226,9245,304.155,307.37,292.337,294.516,27.358,26.2413,28.098,27.6519,319.999993000,319.999993000,319.999993000,319.999993000,100.0000,100.00000,100.0000,100.0000,-0.677,-0.445,-0.7004,-0.4767,-0.0606,-0.0882,1.13,1.26,84.489,77.508,89.113,86.325,92.470,69.823,103.592,93.002,89.038,67.208,98.676,88.138,87.905,65.945,96.252,85.389,0.228,0.010,0.05446,0.08739,0,238.22,237.80,240.68,240.62,-359,21
1072,1072,1072,290.7,0,1,1,1,1,1,0,0,0,100,1,1.24300,12,0,0.0000,0.000,56.999999000,0.00,12,12,12,12,-1.370,0.5990,0.139,187.73,-2.4273,-2.886,-3.2513,-3.921,219.1,-227.12,-0.763,0,0,0,0,0.4130,-10.15906,-10.15906,-2.056,1.72,-0.086,-3.80,80.75,-0.350,-0.2696,10.68,100.00,0,0,251.48,0,0,0,0,0,0,0.0000,16378,0.0000,30,6.000,290.69,0.0000,0,0,0,0,0,0.0000,0,19.005,19.005,0.000,0.000,0.0000,150,968.10656,18800,79.999998000,79.999998000,149.999991000,149.999991000,386,0,0.0000,1,5.0000,111.11,-60.22,-60.22,-61.93,-61.93,13,-163.11,36.20,-213.28,98.55,0.0000,-19.00,3.81,100,16.184,11.973,77.90,68.06,0.0000,1,100.00,0,0.0000,0,0.0000,8075,6195,9199,7797,296.533,300.61,294.713,298.437,27.498,26.2702,28.268,27.7724,319.999993000,319.999993000,319.999993000,319.999993000,100.0000,100.00000,100.0000,100.0000,-0.699,-0.358,-0.5286,-0.3023,-0.1054,-0.0436,0.94,1.32,85.360,77.688,90.177,87.078,90.707,68.968,103.297,93.365,87.235,66.278,98.176,88.264,86.047,64.995,95.561,85.339,0.669,-0.337,0.05080,0.07641,0,249.13,248.25,251.21,251.21,-359,21
1156,1156,1156,312.1,0,1,1,1,1,1,0,0,0,100,1,1.24300,12,0,0.0000,0.000,56.999999000,0.00,12,12,12,12,0.088,0.4965,1.111,175.03,-2.6828,-2.443,-3.8058,-3.885,135.3,-227.81,-2.258,0,0,0,0,0.4467,-10.15906,-10.15906,-0.538,4.01,0.020,-0.27,86.70,0.020,-0.1145,-0.82,100.00,0,0,269.37,0,0,0,0,0,0,0.0000,17543,0.0000,30,6.000,312.12,0.0000,0,0,0,0,0,0.0000,0,20.004,20.004,0.000,0.000,0.0000,150,968.10656,18800,79.999998000,79.999998000,149.999991000,149.999991000,386,0,0.0000,1,5.0000,111.11,-68.53,-68.53,-71.41,-71.41,13,-136.72,148.92,-184.12,191.62,0.0000,-20.00,-0.49,100,15.920,17.279,81.06,80.31,0.0000,1,99.22,0,0.0000,0,0.0000,9150,9351,9566,9456,293.390,291.46,294.066,294.176,27.644,26.3109,28.452,27.9121,319.999993000,319.999993000,319.999993000,319.999993000,100.0000,100.00000,100.0000,100.0000,-0.181,0.301,-0.0620,0.1257,-0.0695,-0.0728,1.00,0.97,86.274,77.943,91.325,87.951,89.088,68.257,103.578,94.302,85.561,65.471,98.162,88.876,84.308,64.156,95.276,85.700,0.178,0.304,0.04359,0.04529,0,266.82,266.88,269.14,269.14,-359,21
1245,1245,1245,322.5,0,1,1,1,1,1,0,0,0,100,1,1.24300,12,0,0.0000,0.000,56.999999000,0.00,12,12,12,12,-0.056,-0.2686,-0.705,178.46,-2.6251,-2.569,-3.8665,-3.810,46.8,-227.38,-2.434,0,0,0,0,0.4824,-10.15906,-10.15906,0.066,0.94,0.008,0.27,89.58,-0.025,0.0877,0.34,100.00,0,0,276.12,0,0,0,0,0,0,0.0000,17983,0.0000,30,6.000,322.50,0.0000,0,0,0,0,0,0.0000,0,21.003,21.003,0.000,20.231,0.0000,150,968.10656,18800,79.999998000,79.999998000,149.999991000,149.999991000,386,0,0.0000,1,5.0000,83.33,-57.07,-57.07,-70.90,-70.90,13,-81.18,78.50,-211.09,207.23,0.0000,-21.00,0.00,100,14.529,14.450,81.44,81.04,0.0000,1,56.47,0,0.0000,0,0.0000,6006,6041,9996,10150,302.093,301.14,293.585,292.669,27.776,26.3712,28.634,28.0618,319.999993000,319.999993000,319.999993000,319.999993000,100.0000,100.00000,100.0000,100.0000,-0.181,0.158,-0.1135,0.0685,-0.0157,-0.0174,0.31,0.32,87.099,78.320,92.464,88.886,86.700,67.840,102.908,94.454,83.168,64.948,97.272,88.792,81.865,63.605,94.150,85.420,0.180,0.178,0.04071,0.04190,0,275.87,275.84,276.24,276.24,-359,21
1332,1332,1332,307.3,0,1,1,1,1,1,0,0,0,100,1,1.24300,12,0,0.0000,0.000,56.999999000,0.00,12,12,12,12,-0.006,-0.3731,-0.190,176.20,-2.5724,-2.503,-3.8515,-3.822,-40.7,-227.09,-2.113,0,0,0,0,0.5176,-10.15906,-10.15906,0.300,-0.17,-0.053,-0.76,85.36,-0.007,-0.1847,0.03,100.00,0,0,263.00,0,0,0,0,0,0,0.0000,17128,0.0000,30,6.000,307.28,0.0000,0,0,0,0,0,0.0000,0,22.005,22.005,0.000,20.231,0.0000,150,968.10656,18800,79.999998000,79.999998000,149.999991000,149.999991000,386,0,0.0000,1,5.0000,111.11,-61.52,-61.52,-70.24,-70.24,13,-98.39,100.45,-200.02,198.17,0.0000,-22.00,-0.12,100,15.798,16.006,81.04,80.88,0.0000,1,48.63,0,0.0000,0,0.0000,6946,7061,9595,9574,299.506,298.10,294.494,293.979,27.886,26.4233,28.794,28.1939,319.999993000,319.999993000,319.999993000,319.999993000,100.0000,100.00000,100.0000,100.0000,-0.208,0.228,-0.1028,0.0960,-0.0192,-0.0223,0.19,0.20,87.788,78.645,93.461,89.712,84.718,67.387,100.919,93.132,81.173,64.403,95.232,87.408,79.822,63.035,91.996,83.954,0.208,0.233,0.04145,0.04192,0,263.00,262.99,263.07,263.07,-359,21
1416,1416,1416,295.8,0,1,1,1,1,1,0,0,0,100,1,1.24300,12,0,0.0000,0.000,56.999999000,0.00,12,12,12,12,0.867,-0.2721,0.499,179.19,-2.8212,-2.252,-3.9006,-3.558,-124.1,-226.69,-0.607,0,0,0,0,0.5511,-10.15906,-10.15906,1.107,-0.38,0.409,1.82,82.17,0.222,-0.2151,-8.94,100.00,0,0,253.39,0,0,0,0,0,0,0.0000,16503,0.0000,30,6.000,295.83,0.0000,0,0,0,0,0,0.0000,0,23.001,23.001,0.000,20.231,0.0000,150,968.10656,18800,79.999998000,79.999998000,149.999991000,149.999991000,386,0,0.0000,1,5.0000,111.11,-56.89,-56.89,-64.68,-64.68,13,-42.64,122.72,-135.69,213.06,0.0000,-23.00,-3.37,100,11.892,15.393,74.96,79.96,0.0000,1,49.02,0,0.0000,0,0.0000,5708,7086,8492,9132,303.658,299.04,297.544,295.320,27.960,26.4537,28.920,28.3000,319.999993000,319.999993000,319.999993000,319.999993000,100.0000,100.00000,100.0000,100.0000,0.236,0.557,0.1885,0.4069,-0.0136,-0.0237,0.31,0.13,88.251,78.836,94.252,90.375,82.845,67.019,99.190,92.090,79.302,63.956,93.469,86.316,77.911,62.564,90.141,82.793,-0.277,0.584,0.05785,0.04386,0,252.90,253.66,253.30,253.63,-359,21
1497,1497,1497,290.3,0,1,1,1,1,1,0,0,0,100,1,1.24300,12,0,0.0000,0.000,56.999999000,0.00,12,12,12,12,-0.031,0.0420,0.468,178.05,-2.5011,-2.663,-3.6032,-3.627,-205.3,-227.44,2.449,0,0,0,0,0.5838,-10.15906,-10.15906,2.724,-0.28,-0.005,0.87,80.64,0.001,-0.2839,0.37,100.00,0,0,249.58,0,0,0,0,0,0,0.0000,16254,0.0000,30,6.000,290.31,0.0000,0,0,0,0,0,0.0000,0,24.003,24.003,0.000,20.231,0.0000,150,968.10656,18800,79.999998000,79.999998000,149.999991000,149.999991000,386,0,0.0000,1,5.0000,83.33,-56.13,-56.13,-57.99,-57.99,13,-84.08,76.32,-161.46,159.88,0.0000,-24.00,0.02,100,13.683,12.637,73.65,72.97,0.0000,1,67.45,0,0.0000,0,0.0000,6579,6001,8391,8350,301.420,302.11,297.969,297.581,28.010,26.4739,29.029,28.3922,319.999993000,319.999993000,319.999993000,319.999993000,100.0000,100.00000,100.0000,100.0000,-0.160,0.138,-0.1287,0.1147,-0.0375,-0.0374,0.55,0.56,88.561,78.962,94.930,90.951,81.109,66.670,98.007,91.561,77.572,63.541,92.225,85.706,76.146,62.130,88.784,82.093,0.157,0.122,0.06121,0.06287,0,248.53,248.50,249.57,249.57,-359,21
1577,1577,1577,291.2,0,1,1,1,1,1,0,0,0,100,1,1.24300,12,0,0.0000,0.000,56.999999000,0.00,12,12,12,12,-1.449,0.0696,1.090,171.61,-2.2493,-2.909,-3.3168,-3.566,-286.0,-227.25,7.720,0,0,0,0,0.6164,-10.15906,-10.15906,3.983,11.12,1.593,3.83,80.89,-0.389,-0.2260,10.05,100.00,0,0,250.50,0,0,0,0,0,0,0.0000,16314,0.0000,30,6.000,291.22,0.0000,0,0,0,0,0,0.0000,0,25.005,25.005,0.000,20.231,0.0000,150,968.10656,18800,79.999998000,79.999998000,149.999991000,149.999991000,386,0,0.0000,1,5.0000,111.11,-60.76,-60.76,-58.34,-58.34,13,-144.64,37.76,-252.08,114.78,0.0000,-25.00,4.77,100,18.445,11.778,73.60,68.83,0.0000,1,70.20,0,0.0000,0,0.0000,7133,6096,10214,9768,298.034,300.54,293.756,294.205,28.050,26.4752,29.123,28.4733,319.999993000,319.999993000,319.999993000,319.999993000,100.0000,100.00000,100.0000,100.0000,-0.745,-0.346,-0.5780,-0.3544,-0.0438,-0.0367,0.44,0.62,88.812,78.970,95.520,91.458,80.150,66.072,97.402,91.346,76.581,62.894,91.528,85.392,75.107,61.462,87.958,81.676,0.669,-0.277,0.06029,0.07381,0,249.94,249.12,250.79,250.32,-359,21
1658,1658,1658,282.4,0,1,1,1,1,1,0,0,0,100,1,1.24300,12,0,0.0000,0.000,56.999999000,0.00,12,12,12,12,-0.862,-0.8234,-0.774,176.07,-2.5091,-2.705,-3.4068,-3.613,-364.7,-213.63,13.966,0,0,0,0,0.6492,-10.15906,-10.15906,3.956,-1.54,5.639,-0.42,78.45,-0.137,-0.4086,8.03,100.00,0,0,240.97,0,0,0,0,0,0,0.0000,15693,0.0000,30,6.000,282.44,0.0000,0,0,0,0,0,0.0000,0,26.007,26.007,0.000,20.231,0.0000,150,968.10656,18800,79.999998000,79.999998000,149.999991000,149.999991000,386,0,0.0000,1,5.0000,83.33,-57.09,-57.09,-54.25,-54.25,13,-113.06,40.43,-165.58,116.35,0.0000,-26.00,5.43,100,15.200,12.462,72.42,67.96,0.0000,1,0.00,0,0.0000,0,0.0000,6288,5621,7775,7430,301.432,302.49,299.885,300.343,28.119,26.4474,29.222,28.5459,319.999993000,319.999993000,319.999993000,319.999993000,100.0000,100.00000,100.0000,100.0000,-0.554,-0.230,-0.3755,-0.1032,-0.0102,0.0130,-0.39,-0.09,89.242,78.796,96.135,91.912,82.729,66.397,99.076,92.368,78.974,63.056,92.966,86.156,77.422,61.529,89.178,82.210,0.626,-0.308,0.06199,0.07366,0,242.39,241.80,241.14,241.14,-359,21
1732,1732,1732,254.7,0,1,1,1,1,1,0,0,0,100,1,1.24300,12,0,0.0000,0.000,56.999999000,0.00,12,12,12,12,-4.925,-0.3811,-0.178,184.25,-1.5371,-3.683,-2.3831,-4.087,-429.7,-178.95,18.255,0,0,0,0,0.6790,-10.15906,-10.15906,1.773,8.90,3.879,-6.94,70.72,-1.571,-0.4280,41.09,100.00,0,0,218.74,0,0,0,0,0,0,0.0000,14246,0.0000,30,6.000,254.65,0.0000,0,0,0,0,0,0.0000,0,27.006,27.006,0.000,20.231,0.0000,150,968.10656,18800,79.999998000,79.999998000,149.999991000,149.999991000,386,0,0.0000,1,5.0000,83.33,-56.67,-56.67,-49.65,-49.65,13,-204.18,-38.62,-269.29,-101.44,0.0000,-27.00,27.75,100,24.292,4.255,79.42,47.43,0.0000,1,43.14,0,0.0000,0,0.0000,8340,2387,9859,7297,294.839,311.20,294.694,300.948,28.187,26.3925,29.304,28.5825,319.999993000,319.999993000,319.999993000,319.999993000,100.0000,100.00000,100.0000,100.0000,-2.899,-2.603,-2.1797,-1.9435,-0.0625,0.0034,0.10,0.33,89.669,78.453,96.650,92.141,87.056,67.520,101.687,93.221,83.019,63.953,95.376,86.805,81.344,62.297,91.425,82.675,2.625,-2.328,0.04351,0.11818,0,220.09,216.78,220.39,217.26,-359,21
1801,1801,1801,244.4,0,1,1,1,1,1,0,0,0,100,1,1.24300,12,0,0.0000,0.000,56.999999000,0.00,12,12,12,12,-2.745,-0.1103,-1.046,199.24,-2.1158,-3.354,-2.5449,-3.851,-462.6,-119.60,20.303,0,0,0,0,0.7064,-10.15906,-10.15906,-0.081,-10.28,3.560,-1.01,67.88,-0.859,-0.5404,20.51,100.00,0,0,209.94,0,0,0,0,0,0,0.0000,13673,0.0000,30,6.000,244.40,0.0000,0,0,0,0,0,0.0000,0,28.002,28.002,0.000,20.231,0.0000,150,968.10656,18800,79.999998000,79.999998000,149.999991000,149.999991000,386,0,0.0000,1,5.0000,111.11,-42.98,-42.98,-45.83,-45.83,13,-101.85,-11.43,-223.86,-4.69,0.0000,-28.00,18.65,100,15.251,2.621,71.41,48.01,0.0000,1,50.59,0,0.0000,0,0.0000,4480,1154,8310,5917,306.645,316.19,297.891,303.710,28.279,26.3239,29.395,28.6135,319.999993000,319.999993000,319.999993000,319.999993000,100.0000,100.00000,100.0000,100.0000,-1.877,-1.875,-1.3012,-1.0114,0.0090,0.0293,0.25,0.49,90.241,78.024,97.222,92.334,91.836,68.544,104.950,94.689,87.518,64.765,98.427,88.027,85.730,62.984,94.315,83.688,1.665,-1.662,0.06440,0.11623,0,210.43,208.56,210.78,209.29,-359,21
1870,1870,1870,251.2,0,1,1,1,1,1,0,0,0,100,1,1.24300,12,0,0.0000,0.000,56.999999000,0.00,12,12,12,12,-0.659,0.3786,0.067,206.58,-2.4365,-2.942,-2.9413,-3.197,-470.3,-51.51,19.314,0,0,0,0,0.7343,-10.15906,-10.15906,-2.441,-2.97,0.149,-0.56,69.78,-0.224,-0.6110,5.69,100.00,0,0,216.99,0,0,0,0,0,0,0.0000,14132,0.0000,30,6.000,251.20,0.0000,0,0,0,0,0,0.0000,0,29.004,29.004,0.000,20.231,0.0000,150,968.10656,18800,79.999998000,79.999998000,149.999991000,149.999991000,386,0,0.0000,1,5.0000,166.66,-47.04,-47.04,-35.85,-35.85,13,-66.13,23.44,-136.17,77.96,0.0000,-29.00,1.84,100,11.982,7.906,57.99,52.99,0.0000,1,74.90,0,0.0000,0,0.0000,4709,3328,6876,6406,306.663,309.61,302.239,302.776,28.332,26.2810,29.473,28.6433,319.999993000,319.999993000,319.999993000,319.999993000,100.0000,100.00000,100.0000,100.0000,-0.349,-0.234,-0.4622,-0.1378,-0.0403,-0.0594,0.74,0.99,90.573,77.756,97.708,92.520,90.995,67.928,104.571,94.111,86.676,64.136,98.069,87.468,84.861,62.352,93.945,83.126,0.289,-0.204,0.09588,0.10681,0,215.56,214.95,216.90,216.90,-359,21
1941,1941,1941,262.4,0,1,1,1,1,1,0,0,0,100,1,1.24300,12,0,0.0000,0.000,56.999999000,0.00,12,12,12,12,-0.055,0.3570,0.050,209.36,-2.6574,-2.615,-3.1722,-3.110,-471.5,19.37,15.618,0,0,0,0,0.7632,-10.15906,-10.15906,-4.809,-2.35,0.088,0.72,72.89,-0.005,-0.6250,0.34,100.00,0,0,226.52,0,0,0,0,0,0,0.0000,14752,0.0000,30,6.000,262.40,0.0000,0,0,0,0,0,0.0000,0,30.000,30.000,0.000,20.231,0.0000,150,968.10656,18800,79.999998000,79.999998000,149.999991000,149.999991000,386,0,0.0000,1,5.0000,83.33,-51.51,-51.51,-37.87,-37.87,13,-62.29,59.47,-111.63,108.67,0.0000,-30.00,0.03,100,11.440,11.011,56.94,57.25,0.0000,1,74.90,0,0.0000,0,0.0000,5229,5177,6650,6675,305.335,304.52,302.957,302.329,28.373,26.2433,29.545,28.6806,319.999993000,319.999993000,319.999993000,319.999993000,100.0000,100.00000,100.0000,100.0000,-0.109,0.095,-0.1769,0.1480,-0.0556,-0.0590,0.84,0.86,90.831,77.520,98.158,92.754,89.399,67.003,103.696,93.540,85.125,63.231,97.229,86.924,83.303,61.462,93.090,82.586,0.090,0.073,0.09853,0.09800,0,224.76,224.72,226.43,226.43,-359,21
2016,2016,2016,274.9,0,1,1,1,1,1,0,0,0,100,1,1.24300,12,0,0.0000,0.000,56.999999000,0.00,12,12,12,12,-1.486,0.5865,-0.206,211.20,-2.0385,-2.928,-3.1650,-3.100,-462.2,93.18,8.764,0,0,0,0,0.7935,-10.15906,-10.15906,-6.911,3.43,2.315,11.23,76.34,-0.403,-0.6457,11.37,100.00,0,0,237.74,0,0,0,0,0,0,0.0000,15483,0.0000,30,6.000,274.85,0.0000,0,0,0,0,0,0.0000,0,31.005,31.005,0.000,20.231,0.0000,150,968.10656,18800,79.999998000,79.999998000,149.999991000,149.999991000,386,0,0.0000,1,5.0000,66.66,-55.22,-55.22,-34.93,-34.93,13,-129.70,11.53,-161.63,54.58,0.0000,-31.00,6.21,100,16.535,8.226,59.00,56.54,0.0000,1,86.67,0,0.0000,0,0.0000,6618,5111,7285,7399,300.868,303.79,301.892,300.980,28.438,26.1972,29.628,28.7238,319.999993000,319.999993000,319.999993000,319.999993000,100.0000,100.00000,100.0000,100.0000,-0.811,-0.552,-0.7179,-0.3907,-0.0869,-0.0697,0.98,1.22,91.236,77.232,98.674,93.023,90.069,66.617,104.123,93.930,85.732,62.798,97.585,87.219,83.867,61.002,93.350,82.791,0.713,-0.486,0.09414,0.10109,0,235.70,234.85,238.03,237.54,-359,21
2094,2094,2094,288.6,0,1,1,1,1,1,0,0,0,100,1,1.24300,12,0,0.0000,0.000,56.999999000,0.00,12,12,12,12,-5.135,0.3374,1.758,182.87,-1.2027,-3.901,-3.0910,-4.849,-426.7,161.50,0.183,0,0,0,0,0.8251,-10.15906,-10.15906,-4.454,1.71,2.314,-7.16,80.16,-1.572,-0.2100,31.81,100.00,0,0,248.85,0,0,0,0,0,0,0.0000,16206,0.0000,30,6.000,288.65,0.0000,0,0,0,0,0,0.0000,0,32.004,32.004,0.000,20.231,0.0000,150,968.10656,18800,79.999998000,79.999998000,149.999991000,149.999991000,386,0,0.0000,1,5.0000,66.66,-64.37,-64.37,-76.21,-76.21,13,-307.93,-58.74,-353.50,-58.18,0.0000,-32.00,18.91,100,27.495,5.792,102.57,67.00,0.0000,1,86.67,0,0.0000,0,0.0000,11071,4359,11776,8989,288.278,306.32,289.175,295.324,28.585,26.1751,29.750,28.7969,319.999993000,319.999993000,319.999993000,319.999993000,100.0000,100.00000,100.0000,100.0000,-2.453,-2.011,-1.7154,-1.5948,-0.0789,-0.0297,0.66,0.91,92.155,77.095,99.436,93.481,94.885,68.256,107.471,96.668,90.307,64.155,100.608,89.540,88.348,62.200,96.074,84.759,2.024,-1.578,-0.02261,0.08100,0,248.32,245.67,249.93,247.60,-359,21
2176,2176,2176,297.9,0,1,1,1,1,1,0,0,0,100,1,1.24300,12,0,0.0000,0.000,56.999999000,0.00,12,12,12,12,-2.980,0.0369,0.585,178.37,-2.2306,-2.907,-3.2592,-4.229,-359.7,207.87,-1.957,0,0,0,0,0.8581,-10.15906,-10.15906,0.111,3.43,1.836,-13.32,82.75,-0.534,-0.2636,26.25,100.00,0,0,256.24,0,0,0,0,0,0,0.0000,16688,0.0000,30,6.000,297.89,0.0000,0,0,0,0,0,0.0000,0,33.009,33.009,0.000,20.231,0.0000,150,968.10656,18800,79.999998000,79.999998000,149.999991000,149.999991000,386,0,0.0000,1,5.0000,83.33,-62.85,-62.85,-67.72,-67.72,13,-247.38,-53.06,-274.77,66.25,0.0000,-33.01,19.47,100,19.554,11.516,86.42,69.56,0.0000,1,73.33,0,0.0000,0,0.0000,9306,6290,10201,7946,293.910,300.67,294.009,298.784,28.777,26.1950,29.903,28.8973,319.999993000,319.999993000,319.999993000,319.999993000,100.0000,100.00000,100.0000,100.0000,-1.626,-1.198,-0.8631,-0.6612,-0.1026,-0.0118,0.43,0.76,93.359,77.219,100.394,94.109,98.907,69.748,110.464,99.194,94.131,65.391,103.283,91.642,92.078,63.297,98.447,86.494,1.815,-1.409,0.02655,0.07241,0,255.76,254.01,256.82,255.50,-359,21
2259,2259,2259,299.9,0,1,1,1,1,1,0,0,0,100,1,1.24300,12,0,0.0000,0.000,56.999999000,0.00,12,12,12,12,-1.771,0.1428,0.957,177.99,-2.1315,-3.032,-3.5324,-4.097,-279.9,226.31,-2.043,0,0,0,0,0.8913,-10.15906,-10.15906,-0.140,3.90,-0.384,0.19,83.31,-0.636,-0.1075,9.51,100.00,0,0,257.82,0,0,0,0,0,0,0.0000,16791,0.0000,30,6.000,299.94,0.0000,0,0,0,0,0,0.0000,0,34.002,34.002,0.000,20.231,0.0000,150,968.10656,18800,79.999998000,79.999998000,149.999991000,149.999991000,386,0,0.0000,1,5.0000,111.11,-60.11,-60.11,-70.30,-70.30,13,-167.80,29.31,-267.85,110.29,0.0000,-34.00,3.39,100,19.084,11.228,87.67,74.21,0.0000,1,73.72,0,0.0000,0,0.0000,8021,6002,10237,9718,297.460,301.68,294.049,294.523,28.946,26.2072,30.055,28.9977,319.999993000,319.999993000,319.999993000,319.999993000,100.0000,100.00000,100.0000,100.0000,-0.841,-0.438,-0.6907,-0.5053,-0.0453,-0.0369,0.46,0.65,94.410,77.295,101.346,94.736,100.249,70.084,111.731,100.119,95.388,65.609,104.390,92.356,93.259,63.456,99.370,87.011,0.592,-0.198,0.02323,0.06129,0,257.13,256.30,258.03,257.57,-359,21
2342,2342,2342,296.7,0,1,1,1,1,1,0,0,0,100,1,1.24300,12,0,0.0000,0.000,56.999999000,0.00,12,12,12,12,-0.092,-0.1894,0.993,179.80,-2.5735,-2.649,-3.8441,-3.882,-196.4,231.17,-2.046,0,0,0,0,0.9250,-10.15906,-10.15906,-0.071,1.21,-0.042,-2.72,82.43,-0.004,-0.0704,0.38,100.00,0,0,254.22,0,0,0,0,0,0,0.0000,16556,0.0000,30,6.000,296.74,0.0000,0,0,0,0,0,0.0000,0,35.004,35.004,0.000,20.231,0.0000,150,968.10656,18800,79.999998000,79.999998000,149.999991000,149.999991000,386,0,0.0000,1,5.0000,111.11,-54.54,-54.54,-71.20,-71.20,13,-74.24,68.02,-219.13,210.81,0.0000,-35.00,-0.03,100,13.980,12.994,82.10,81.25,0.0000,1,52.16,0,0.0000,0,0.0000,5853,5391,10449,10053,303.617,303.44,293.500,293.456,29.080,26.2429,30.194,29.1032,319.999993000,319.999993000,319.999993000,319.999993000,100.0000,100.00000,100.0000,100.0000,-0.152,0.148,-0.0890,0.0868,-0.0019,-0.0021,0.24,0.25,95.248,77.518,102.211,95.395,98.230,69.171,110.219,99.140,93.433,64.736,102.903,91.413,91.276,62.617,97.831,86.058,0.163,0.136,0.03867,0.04101,0,254.17,254.13,254.32,254.32,-359,21
2423,2423,2423,287.8,0,1,1,1,1,1,0,0,0,100,1,1.24300,12,0,0.0000,0.000,56.999999000,0.00,12,12,12,12,-0.019,-0.3195,0.424,186.43,-2.7055,-2.506,-3.6538,-3.514,-115.0,232.41,-2.033,0,0,0,0,0.9578,-10.15906,-10.15906,-0.206,-0.01,0.066,-1.17,79.95,0.015,-0.3367,0.25,100.00,0,0,246.47,0,0,0,0,0,0,0.0000,16051,0.0000,30,6.000,287.82,0.0000,0,0,0,0,0,0.0000,0,36.006,36.006,0.000,20.231,0.0000,150,968.10656,18800,79.999998000,79.999998000,149.999991000,149.999991000,386,0,0.0000,1,5.0000,111.11,-56.00,-56.00,-57.23,-57.23,13,-78.12,82.66,-158.43,161.75,0.0000,-36.00,-0.06,100,13.131,13.643,72.10,73.36,0.0000,1,43.53,0,0.0000,0,0.0000,6100,6327,8208,8383,303.166,301.02,299.424,298.089,29.169,26.2721,30.300,29.1877,319.999993000,319.999993000,319.999993000,319.999993000,100.0000,100.00000,100.0000,100.0000,-0.126,0.189,-0.1172,0.1315,-0.0150,-0.0187,0.14,0.15,95.805,77.701,102.876,95.923,95.234,68.478,107.773,97.636,90.561,64.083,100.576,90.026,88.415,62.002,95.534,84.737,0.134,0.159,0.06402,0.06102,0,246.54,246.51,246.54,246.54,-359,21
2501,2501,2501,268.3,0,1,1,1,1,1,0,0,0,100,1,1.24300,12,0,0.0000,0.000,56.999999000,0.00,12,12,12,12,-0.320,-0.6294,-0.400,191.57,-2.6625,-2.564,-3.3634,-3.155,-37.5,233.14,-2.027,0,0,0,0,0.9890,-10.15906,-10.15906,-0.366,1.26,0.012,2.21,74.53,0.007,-0.4550,1.98,100.00,0,0,229.30,0,0,0,0,0,0,0.0000,14933,0.0000,30,6.000,268.29,0.0000,0,0,0,0,0,0.0000,0,37.005,37.005,0.000,20.231,0.0000,150,968.10656,18800,79.999998000,79.999998000,149.999991000,149.999991000,386,0,0.0000,1,5.0000,111.11,-54.56,-54.56,-48.93,-48.93,13,-80.66,53.69,-154.27,140.51,0.0000,-37.00,3.31,100,13.762,12.909,64.80,65.13,0.0000,1,9.41,0,0.0000,0,0.0000,5321,5349,8069,8076,304.499,303.03,299.700,298.897,29.218,26.2806,30.368,29.2400,319.999993000,319.999993000,319.999993000,319.999993000,100.0000,100.00000,100.0000,100.0000,-0.322,-0.019,-0.1762,0.0962,-0.0031,0.0175,-0.19,-0.12,96.111,77.754,103.299,96.250,92.531,67.710,105.313,95.951,87.970,63.361,98.266,88.495,85.834,61.317,93.287,83.300,0.359,-0.070,0.07992,0.07953,0,230.23,230.17,229.47,229.47,-359,21
2573,2573,2573,252.4,0,1,1,1,1,1,0,0,0,100,1,1.24300,12,0,-4.3740,37.403,56.999999000,0.00,12,12,12,12,-0.035,-0.3054,0.532,198.97,-2.6791,-2.621,-3.1662,-3.084,34.0,232.58,-2.021,0,0,0,0,0.0178,-10.15906,-10.15906,-0.507,0.51,0.085,0.04,70.10,0.017,-0.6187,0.29,100.00,0,0,216.30,0,0,0,0,0,0,0.0000,14087,0.0000,30,6.000,252.36,0.0000,0,0,0,0,0,0.0000,0,0.597,0.597,37.403,17.172,0.0000,150,968.10656,18800,79.999998000,79.999998000,149.999991000,149.999991000,386,0,0.0000,1,5.0000,66.66,-51.11,-51.11,-38.41,-38.41,13,-59.15,59.69,-118.73,119.57,1.0000,-38.00,-0.04,100,11.446,11.177,56.83,57.14,0.0000,1,34.12,0,0.0000,0,0.0000,5087,5017,6868,6915,305.988,304.87,302.625,301.926,29.225,26.2589,30.398,29.2582,319.999993000,319.999993000,319.999993000,319.999993000,100.0000,100.00000,100.0000,100.0000,-0.088,0.127,-0.1483,0.1635,-0.0040,-0.0068,0.05,0.06,96.158,77.618,103.487,96.364,90.112,66.791,103.033,94.189,85.656,62.505,96.150,86.913,83.536,60.499,91.256,81.838,0.085,0.083,0.09735,0.09677,0,216.57,216.54,216.38,216.38,-359,21
2642,2642,2642,250.4,0,1,1,1,1,1,0,0,0,100,1,1.24300,12,0,-4.7370,37.403,56.999999000,0.00,12,12,12,12,-0.034,0.1977,0.508,199.97,-2.6784,-2.636,-3.1340,-3.056,103.8,231.78,-2.021,0,0,0,0,0.0459,-10.15906,-10.15906,-0.484,0.04,0.053,0.69,69.54,0.011,-0.6181,0.27,100.00,0,0,215.86,0,0,0,0,0,0,0.0000,14058,0.0000,30,6.000,250.35,0.0000,0,0,0,0,0,0.0000,0,1.605,1.605,37.403,17.172,0.0000,150,968.10656,18800,79.999998000,79.999998000,149.999991000,149.999991000,386,0,0.0000,1,5.0000,111.11,-50.16,-50.16,-37.10,-37.10,13,-55.34,56.37,-114.54,114.68,1.0000,-39.00,-0.17,100,11.056,10.720,55.78,56.15,0.0000,1,65.49,0,0.0000,0,0.0000,4890,4838,6811,6874,306.545,305.42,302.860,302.027,29.202,26.2193,30.405,29.2591,319.999993000,319.999993000,319.999993000,319.999993000,100.0000,100.00000,100.0000,100.0000,-0.074,0.115,-0.1582,0.1593,-0.0353,-0.0405,0.63,0.64,96.012,77.371,103.531,96.370,87.645,65.915,101.035,92.849,83.304,61.690,94.305,85.724,81.213,59.721,89.494,80.753,0.065,0.078,0.10041,0.09973,0,214.70,214.66,215.81,215.81,-359,21
2712,2712,2712,256.0,0,1,1,1,1,1,0,0,0,100,1,1.24300,12,0,-4.8630,37.403,56.999999000,0.00,12,12,12,12,-0.048,0.1197,-0.727,196.10,-2.6362,-2.675,-3.3020,-3.248,174.1,231.06,-2.030,0,0,0,0,0.0742,-10.15906,-10.15906,-0.162,-4.24,0.043,0.88,71.12,0.013,-0.5164,0.37,100.00,0,0,220.61,0,0,0,0,0,0,0.0000,14367,0.0000,30,6.000,256.04,0.0000,0,0,0,0,0,0.0000,0,2.604,2.604,37.403,17.172,0.0000,150,968.10656,18800,79.999998000,79.999998000,149.999991000,149.999991000,386,0,0.0000,1,5.0000,83.33,-49.63,-49.63,-43.27,-43.27,13,-50.48,48.50,-120.30,120.84,1.0000,-40.00,-0.04,100,11.613,10.796,62.25,62.35,0.0000,1,65.49,0,0.0000,0,0.0000,4482,4252,6917,6974,306.975,306.52,302.471,301.650,29.167,26.1809,30.408,29.2581,319.999993000,319.999993000,319.999993000,319.999993000,100.0000,100.00000,100.0000,100.0000,-0.077,0.094,-0.1488,0.1497,-0.0326,-0.0360,0.62,0.63,95.791,77.130,103.548,96.364,85.329,65.107,99.501,91.927,81.095,60.938,92.885,84.914,79.030,59.006,88.126,80.019,0.090,0.072,0.08719,0.08702,0,219.47,219.43,220.54,220.54,-359,21
2784,2784,2784,260.4,0,1,1,1,1,1,0,0,0,100,1,1.24300,12,0,-4.8900,37.403,56.999999000,0.00,12,12,12,12,-0.611,0.0515,1.150,183.92,-2.5242,-2.709,-3.1409,-3.124,245.9,230.24,-0.758,0,0,0,0,0.1031,-10.15906,-10.15906,1.489,23.47,0.392,-1.26,72.33,-0.099,-0.4475,5.01,100.00,0,0,224.68,0,0,0,0,0,0,0.0000,14632,0.0000,30,6.000,260.40,0.0000,0,0,0,0,0,0.0000,0,3.606,3.606,37.403,17.172,0.0000,150,968.10656,18800,79.999998000,79.999998000,149.999991000,149.999991000,386,0,0.0000,1,5.0000,83.33,-66.52,-66.52,-42.19,-42.19,13,-156.11,94.48,-178.19,128.65,1.0000,-41.00,2.48,100,17.717,15.778,58.27,57.02,0.0000,1,65.49,0,0.0000,0,0.0000,8565,7110,8852,8656,295.042,295.73,298.433,298.146,29.132,26.1552,30.408,29.2615,319.999993000,319.999993000,319.999993000,319.999993000,100.0000,100.00000,100.0000,100.0000,-0.448,0.079,-0.3084,-0.0367,-0.0536,-0.0515,0.40,0.60,95.576,76.970,103.551,96.385,83.394,64.555,98.170,91.197,79.242,60.420,91.641,84.266,77.189,58.516,86.909,79.421,0.467,0.024,0.09486,0.09836,0,223.94,223.52,224.65,224.65,-359,21
2857,2857,2857,262.6,0,1,1,1,1,1,0,0,0,100,1,1.24300,12,0,-4.8780,37.403,56.999999000,0.00,12,12,12,12,-1.410,0.0204,0.475,178.10,-2.1672,-3.058,-3.4213,-3.625,317.7,224.14,2.793,0,0,0,0,0.1325,-10.15906,-10.15906,3.266,0.70,5.117,12.22,72.95,-0.245,-0.4818,12.72,100.00,0,0,226.24,0,0,0,0,0,0,0.0000,14734,0.0000,30,6.000,262.63,0.0000,0,0,0,0,0,0.0000,0,4.599,4.599,37.403,17.172,0.0000,150,968.10656,18800,79.999998000,79.999998000,149.999991000,149.999991000,386,0,0.0000,1,5.0000,83.33,-59.38,-59.38,-46.21,-46.21,13,-156.00,28.66,-160.41,82.80,1.0000,-42.00,6.85,100,18.057,8.604,70.89,66.47,0.0000,1,65.49,0,0.0000,0,0.0000,7712,6194,7060,7340,297.799,301.06,302.163,300.474,29.116,26.1098,30.415,29.2664,319.999993000,319.999993000,319.999993000,319.999993000,100.0000,100.00000,100.0000,100.0000,-0.759,-0.459,-0.6182,-0.3497,-0.0602,-0.0345,0.47,0.66,95.478,76.686,103.594,96.415,83.576,64.308,98.146,91.233,79.399,60.160,91.605,84.286,77.308,58.250,86.822,79.411,0.821,-0.538,0.06703,0.07895,0,225.57,224.60,226.47,225.79,-359,21
2930,2930,2930,262.1,0,1,1,1,1,1,0,0,0,100,1,1.24300,12,0,-4.9290,37.403,56.999999000,0.00,12,12,12,12,-4.199,-0.0474,1.474,164.65,-1.6078,-3.540,-2.9825,-4.384,383.9,195.84,8.193,0,0,0,0,0.1618,-10.15906,-10.15906,4.693,10.00,5.696,4.55,72.78,-0.900,-0.2223,31.09,100.00,0,0,225.82,0,0,0,0,0,0,0.0000,14707,0.0000,30,6.000,262.05,0.0000,0,0,0,0,0,0.0000,0,5.598,5.598,37.403,17.172,0.0000,150,968.10656,18800,79.999998000,79.999998000,149.999991000,149.999991000,386,0,0.0000,1,5.0000,83.33,-66.94,-66.94,-64.33,-64.33,13,-310.28,-70.36,-263.87,-16.45,1.0000,-43.00,18.92,100,24.847,6.617,91.52,61.03,0.0000,1,65.49,0,0.0000,0,0.0000,11061,6493,9444,7931,288.762,300.09,296.190,299.480,29.140,26.0579,30.440,29.2690,319.999993000,319.999993000,319.999993000,319.999993000,100.0000,100.00000,100.0000,100.0000,-1.970,-1.545,-1.4038,-1.2171,-0.0964,-0.0324,0.38,0.64,95.627,76.362,103.753,96.431,86.992,65.473,100.511,92.517,82.632,61.152,93.817,85.390,80.429,59.147,88.876,80.347,1.954,-1.554,0.01130,0.09211,0,225.93,223.52,226.83,224.66,-359,21
3003,3003,3003,263.1,0,1,1,1,1,1,0,0,0,100,1,1.24300,12,0,-4.9620,37.403,56.999999000,0.00,12,12,12,12,-3.011,0.0778,0.409,183.97,-1.9026,-3.445,-2.7153,-3.953,434.0,142.69,14.480,0,0,0,0,0.1912,-10.15906,-10.15906,4.131,-4.91,5.072,4.22,73.07,-0.925,-0.3937,21.61,100.00,0,0,226.43,0,0,0,0,0,0,0.0000,14747,0.0000,30,6.000,263.07,0.0000,0,0,0,0,0,0.0000,0,6.606,6.606,37.403,17.172,0.0000,150,968.10656,18800,79.999998000,79.999998000,149.999991000,149.999991000,386,0,0.0000,1,5.0000,83.33,-45.61,-45.61,-48.76,-48.76,13,-134.60,-21.07,-230.61,-4.31,1.0000,-44.01,24.50,100,17.265,1.774,76.66,52.08,0.0000,1,65.49,0,0.0000,0,0.0000,5734,1748,8574,6698,303.938,314.84,298.049,302.248,29.148,26.0101,30.463,29.2698,319.999993000,319.999993000,319.999993000,319.999993000,100.0000,100.00000,100.0000,100.0000,-2.234,-2.203,-1.2857,-1.0287,-0.0155,-0.0065,0.46,0.73,95.678,76.063,103.894,96.436,87.682,65.457,101.042,92.498,83.267,61.102,94.331,85.352,81.007,59.083,89.347,80.278,1.983,-1.954,0.05189,0.10943,0,226.17,224.45,227.16,225.72,-359,21
3076,3076,3076,264.8,0,1,1,1,1,1,0,0,0,100,1,1.21857,12,0,-4.9650,37.403,56.999999000,0.00,12,12,12,12,-2.030,0.2602,-1.276,207.50,-2.4956,-2.819,-2.3011,-3.141,462.0,76.29,18.337,0,0,0,0,0.2199,-10.15906,-10.15906,0.532,-2.69,1.361,-8.92,73.54,-0.773,-1.0123,19.23,100.00,0,0,229.57,0,0,0,0,0,0,0.0000,14951,0.0000,30,6.000,264.79,0.0000,0,0,0,0,0,0.0000,0,7.599,7.599,37.403,17.172,0.0000,150,968.10656,18800,79.999998000,79.999998000,149.999991000,149.999991000,386,0,0.0000,1,5.0000,166.66,-48.71,-48.71,-22.39,-22.39,13,-116.97,-26.07,-121.05,1.83,1.0000,-45.00,12.42,100,12.824,7.306,49.75,36.67,0.0000,1,72.16,0,0.0000,0,0.0000,5230,3775,5660,3749,304.951,307.86,306.373,310.609,29.162,25.9501,30.484,29.2550,319.999993000,319.999993000,319.999993000,319.999993000,100.0000,100.00000,100.0000,100.0000,-1.260,-1.124,-1.1312,-0.7541,-0.1065,-0.0605,0.97,1.73,95.762,75.688,104.026,96.344,89.518,65.834,102.306,92.566,84.990,61.403,95.582,85.396,82.647,59.347,90.569,80.286,1.104,-1.017,0.11164,0.13450,0,227.36,225.93,229.59,229.58,-359,21
3149,3149,3149,261.0,0,1,1,1,1,1,0,0,0,100,1,1.16433,12,0,-4.9500,37.403,56.999999000,0.00,12,12,12,12,-2.879,-0.0988,0.429,203.37,-1.9115,-3.249,-2.2601,-3.428,469.4,3.35,19.081,0,0,0,0,0.2493,-10.15906,-10.15906,-0.472,0.58,-0.610,-3.15,72.50,-1.043,-0.7542,31.10,100.00,0,0,224.25,0,0,0,0,0,0,0.0000,14605,0.0000,30,6.000,261.02,0.0000,0,0,0,0,0,0.0000,0,8.604,8.604,37.403,17.172,0.0000,150,968.10656,18800,79.999998000,79.999998000,149.999991000,149.999991000,386,0,0.0000,1,5.0000,83.33,-49.06,-49.06,-32.01,-32.01,13,-150.79,-22.38,-195.65,-34.89,1.0000,-46.00,11.14,100,16.791,4.414,60.66,42.34,0.0000,1,48.63,0,0.0000,0,0.0000,6426,2987,7552,5401,302.237,310.98,301.176,305.975,29.168,25.9010,30.500,29.2397,319.999993000,319.999993000,319.999993000,319.999993000,100.0000,100.00000,100.0000,100.0000,-1.510,-1.339,-1.5776,-1.2594,-0.0346,-0.0228,0.21,0.48,95.802,75.381,104.123,96.248,89.328,65.500,101.866,91.569,84.795,61.069,95.222,84.504,82.425,59.018,90.253,79.466,1.401,-1.292,0.08851,0.12580,0,225.20,222.25,225.40,223.20,-359,21
3221,3221,3221,254.5,0,1,1,1,1,1,0,0,0,100,1,1.12056,12,0,-4.8870,37.403,56.999999000,0.00,12,12,12,12,-0.672,-0.5427,-0.811,211.10,-2.5542,-2.860,-2.7985,-3.031,466.3,-68.06,18.795,0,0,0,0,0.2781,-10.15906,-10.15906,-1.567,-2.62,-0.393,-4.39,70.68,-0.168,-0.8667,6.23,100.00,0,0,217.32,0,0,0,0,0,0,0.0000,14153,0.0000,30,6.000,254.46,0.0000,0,0,0,0,0,0.0000,0,9.597,9.597,37.403,17.172,0.0000,150,968.10656,18800,79.999998000,79.999998000,149.999991000,149.999991000,386,0,0.0000,1,5.0000,111.11,-47.41,-47.41,-23.57,-23.57,13,-69.06,19.74,-111.66,63.40,1.0000,-47.00,4.60,100,11.867,8.745,47.59,43.26,0.0000,1,0.00,0,0.0000,0,0.0000,4449,3353,6021,5087,307.102,309.06,305.088,306.805,29.143,25.8602,30.493,29.2173,319.999993000,319.999993000,319.999993000,319.999993000,100.0000,100.00000,100.0000,100.0000,-0.444,-0.299,-0.4260,-0.0640,0.0029,0.0175,-0.38,-0.13,95.645,75.126,104.083,96.108,87.083,64.413,99.864,89.903,82.665,60.066,93.391,83.021,80.340,58.062,88.536,78.117,0.452,-0.345,0.11383,0.12208,0,218.60,218.10,217.44,217.44,-359,21
3289,3289,3289,234.9,0,1,1,1,1,1,0,0,0,100,1,1.11975,12,0,-4.7850,37.403,56.999999000,0.00,12,12,12,12,-3.517,-0.4891,-0.791,222.63,-1.7781,-3.483,-2.0525,-2.641,450.9,-134.17,16.725,0,0,0,0,0.3055,-10.15906,-10.15906,-4.515,-3.86,2.834,8.16,65.24,-1.509,-1.0095,28.84,100.00,0,0,200.56,0,0,0,0,0,0,0.0000,13061,0.0000,30,6.000,234.95,0.0000,0,0,0,0,0,0.0000,0,10.605,10.605,37.403,17.172,0.0000,150,968.10656,18800,79.999998000,79.999998000,149.999991000,149.999991000,386,0,0.0000,1,5.0000,83.33,-47.59,-47.59,-5.07,-5.07,13,-139.60,-26.77,-104.83,-56.89,1.0000,-48.00,26.42,100,18.461,1.491,43.94,31.72,0.0000,1,0.00,0,0.0000,0,0.0000,6473,1816,4883,3874,301.800,314.08,307.568,309.725,29.129,25.7670,30.470,29.1628,319.999993000,319.999993000,319.999993000,319.999993000,100.0000,100.00000,100.0000,100.0000,-2.997,-2.900,-2.1727,-1.8182,-0.0798,0.0774,-0.68,-0.03,95.555,74.544,103.939,95.767,89.098,64.132,100.252,89.174,84.570,59.773,93.833,82.386,82.173,57.760,89.012,77.553,2.360,-2.313,0.11913,0.14106,0,202.54,200.38,201.37,200.04,-359,21
3352,3352,3352,228.9,0,1,1,1,1,1,0,0,0,100,1,1.15727,12,0,-4.6860,37.403,56.999999000,0.00,12,12,12,12,-3.219,0.5051,0.927,218.16,-2.1915,-3.109,-2.1811,-3.047,412.6,-183.46,12.537,0,0,0,0,0.3306,-10.15906,-10.15906,-5.130,15.82,4.088,-8.35,63.58,-0.798,-0.7299,32.83,100.00,0,0,198.51,0,0,0,0,0,0,0.0000,12928,0.0000,30,6.000,228.93,0.0000,0,0,0,0,0,0.0000,0,11.598,11.598,37.403,17.172,0.0000,150,968.10656,18800,79.999998000,79.999998000,149.999991000,149.999991000,386,0,0.0000,1,5.0000,83.33,-51.52,-51.52,-21.09,-21.09,13,-160.55,-35.26,-201.23,-43.41,1.0000,-49.00,20.96,100,15.955,5.593,47.02,32.45,0.0000,1,74.51,0,0.0000,0,0.0000,6507,3398,7893,5824,301.421,308.86,300.776,305.066,29.130,25.6852,30.454,29.1090,319.999993000,319.999993000,319.999993000,319.999993000,100.0000,100.00000,100.0000,100.0000,-1.717,-1.517,-1.5861,-1.2548,-0.0816,-0.0804,0.75,1.17,95.561,74.032,103.839,95.431,90.688,64.177,100.838,88.936,86.077,59.777,94.450,82.197,83.629,57.743,89.646,77.400,1.864,-1.748,0.11550,0.14115,0,198.05,195.30,199.66,197.74,-359,21
3418,3418,3418,243.8,0,1,1,1,1,1,0,0,0,100,1,1.17127,12,0,-4.6140,37.403,56.999999000,0.00,12,12,12,12,-2.307,0.5213,-0.263,211.85,-2.0847,-3.199,-2.6315,-3.359,356.0,-214.98,7.149,0,0,0,0,0.3571,-10.15906,-10.15906,-5.027,4.17,2.074,1.68,67.70,-0.756,-0.6150,18.65,100.00,0,0,211.05,0,0,0,0,0,0,0.0000,13745,0.0000,30,6.000,243.75,0.0000,0,0,0,0,0,0.0000,0,12.597,12.597,37.403,17.172,0.0000,150,968.10656,18800,79.999998000,79.999998000,149.999991000,149.999991000,386,0,0.0000,1,5.0000,111.11,-50.49,-50.49,-34.99,-34.99,13,-119.23,-6.37,-190.11,-4.52,1.0000,-50.00,7.67,100,16.563,6.413,60.46,45.30,0.0000,1,80.78,0,0.0000,0,0.0000,5600,3122,7684,6595,303.582,309.51,301.053,302.998,29.149,25.6085,30.459,29.0663,319.999993000,319.999993000,319.999993000,319.999993000,100.0000,100.00000,100.0000,100.0000,-1.072,-0.871,-1.2012,-0.8843,-0.0575,-0.0830,0.84,1.13,95.679,73.553,103.867,95.165,92.507,64.438,102.174,89.403,87.791,59.974,95.759,82.626,85.272,57.909,90.927,77.801,0.884,-0.714,0.09017,0.12170,0,209.94,208.16,211.54,210.41,-359,21
3488,3488,3488,262.9,0,1,1,1,1,1,0,0,0,100,1,1.13577,12,0,-4.5420,37.403,56.999999000,0.00,12,12,12,12,-1.650,0.4846,1.164,203.93,-2.1831,-3.025,-2.6347,-3.428,286.2,-226.99,2.307,0,0,0,0,0.3860,-10.15906,-10.15906,-3.922,8.56,0.140,-3.17,73.03,-0.729,-0.5486,3.44,100.00,0,0,227.16,0,0,0,0,0,0,0.0000,14794,0.0000,30,6.000,262.95,0.0000,0,0,0,0,0,0.0000,0,13.608,13.608,37.403,17.172,0.0000,150,968.10656,18800,79.999998000,79.999998000,149.999991000,149.999991000,386,0,0.0000,1,5.0000,83.33,-55.58,-55.58,-45.54,-45.54,13,-133.38,23.18,-203.23,53.82,1.0000,-51.01,0.09,100,16.038,9.321,65.41,48.61,0.0000,1,80.39,0,0.0000,0,0.0000,6901,5164,8675,7280,300.851,303.78,298.400,301.011,29.177,25.5612,30.478,29.0473,319.999993000,319.999993000,319.999993000,319.999993000,100.0000,100.00000,100.0000,100.0000,-0.750,-0.449,-0.7822,-0.4916,-0.0575,-0.0618,0.74,0.89,95.856,73.258,103.990,95.046,92.661,64.415,102.599,89.706,87.925,59.925,96.178,82.903,85.375,57.855,91.323,78.058,0.234,0.015,0.07969,0.11542,0,225.63,225.27,227.11,227.10,-359,21
3565,3565,3565,284.9,0,1,1,1,1,1,0,0,0,100,1,1.05867,12,0,-4.5150,37.403,56.999999000,0.00,12,12,12,12,-0.282,0.1412,-0.012,191.54,-2.7227,-2.485,-3.4726,-3.473,210.5,-226.78,-1.002,0,0,0,0,0.4165,-10.15906,-10.15906,-1.652,2.33,0.023,-3.70,79.13,0.000,-0.3458,1.34,100.00,0,0,244.85,0,0,0,0,0,0,0.0000,15946,0.0000,30,6.000,284.87,0.0000,0,0,0,0,0,0.0000,0,14.598,14.598,37.403,17.172,0.0000,150,968.10656,18800,79.999998000,79.999998000,149.999991000,149.999991000,386,0,0.0000,1,5.0000,66.66,-54.41,-54.41,-57.13,-57.13,13,-83.75,46.61,-171.11,165.89,1.0000,-52.00,5.16,100,13.179,13.412,70.30,69.19,0.0000,1,64.31,0,0.0000,0,0.0000,5268,5294,8911,8780,304.693,302.62,297.588,296.794,29.196,25.5607,30.510,29.0610,319.999993000,319.999993000,319.999993000,319.999993000,100.0000,100.00000,100.0000,100.0000,-0.374,-0.080,-0.1322,0.1102,-0.0446,-0.0222,0.48,0.52,95.976,73.254,104.189,95.132,90.086,63.710,101.760,89.805,85.474,59.282,95.356,83.002,82.968,57.263,90.482,78.158,0.409,-0.122,0.06895,0.07164,0,243.97,244.06,244.92,244.92,-359,21
3642,3642,3642,272.8,0,1,1,1,1,1,0,0,0,100,1,1.24300,12,0,-4.4310,37.403,56.999999000,0.00,12,12,12,12,-0.059,-0.1331,-0.407,186.49,-2.6176,-2.661,-3.7019,-3.692,132.9,-223.19,-2.255,0,0,0,0,0.4477,-10.15906,-10.15906,-0.329,-2.36,-0.064,0.31,75.78,0.003,-0.1070,0.41,100.00,0,0,234.06,0,0,0,0,0,0,0.0000,15243,0.0000,30,6.000,272.82,0.0000,0,0,0,0,0,0.0000,0,15.606,15.606,37.403,17.172,0.0000,150,968.10656,18800,79.999998000,79.999998000,149.999991000,149.999991000,386,0,0.0000,1,5.0000,66.66,-49.67,-49.67,-63.97,-63.97,13,-48.95,45.28,-187.21,184.31,1.0000,-53.00,-0.18,100,12.216,11.548,77.05,75.78,0.0000,1,51.77,0,0.0000,0,0.0000,4359,4002,9324,9228,307.276,307.01,296.283,295.436,29.206,25.5577,30.530,29.0649,319.999993000,319.999993000,319.999993000,319.999993000,100.0000,100.00000,100.0000,100.0000,-0.082,0.104,-0.1015,0.0952,0.0092,0.0126,0.27,0.28,96.035,73.236,104.315,95.156,88.026,63.355,99.973,88.703,83.507,58.956,93.668,82.003,81.028,56.971,88.842,77.232,0.102,0.100,0.05186,0.05508,0,233.94,233.90,234.14,234.14,-359,21
